City_ID,City,Lat,Lng,Max Temp,Humidity,Cloudiness,Wind Speed,Country,Date
0,ushuaia,-54.8,-68.3,2.81,100,75,3.13,AR,1699699137
1,puerto ayora,-0.7393,-90.3518,23.64,89,80,1.79,EC,1699699138
2,port-aux-francais,-49.35,70.2167,3.01,66,51,7.92,TF,1699699138
3,ust-nera,64.5667,143.2,-32.43,98,73,1.95,RU,1699699139
4,bilibino,68.0546,166.4372,-29.99,100,92,1.56,RU,1699699139
5,waitangi,-43.9535,-176.5597,9.9,91,93,0.45,NZ,1699699140
6,ribeira grande,38.5167,-28.7,20.22,83,20,7.72,PT,1699699067
7,blackmans bay,-43.0167,147.3167,11.07,67,0,1.96,AU,1699699141
8,enewetak,11.3474,162.3373,28.56,76,95,8.25,MH,1699699142
9,kupang,-10.1667,123.5833,30.32,84,75,3.09,ID,1699699143
10,college,64.8569,-147.8028,-8.03,79,100,0.0,US,1699699144
11,mount isa,-20.7333,139.5,26.87,54,99,2.57,AU,1699699145
12,fray luis beltran,-39.3167,-65.7667,16.4,38,20,3.87,AR,1699699146
13,dingwall,57.5953,-4.4272,7.82,98,99,0.86,GB,1699699147
14,kwang binh,17.4833,106.6,26.48,86,25,1.74,VN,1699699148
15,cabo san lucas,22.8909,-109.9124,25.28,77,0,0.89,MX,1699699149
16,margaret river,-33.95,115.0667,15.91,63,2,9.41,AU,1699698931
17,pacific grove,36.6177,-121.9166,11.42,62,0,1.34,US,1699699150
18,olonkinbyen,70.9221,-8.7187,1.92,79,100,4.05,SJ,1699699150
19,remire-montjoly,4.9167,-52.2667,28.07,80,12,5.97,GF,1699699151
20,bredasdorp,-34.5322,20.0403,23.89,40,63,8.31,ZA,1699699152
21,anadyr,64.75,177.4833,-14.72,85,75,4.0,RU,1699699152
22,balnearia,-31.0088,-62.6673,19.94,87,80,4.44,AR,1699698668
23,lihue,21.9789,-159.3672,23.77,88,100,5.66,US,1699699154
24,petropavlovsk-kamchatsky,53.0452,158.6483,0.33,98,100,5.0,RU,1699698916
25,afaahiti,-17.75,-149.2833,24.93,86,72,5.39,PF,1699699155
26,hukumati azrah,34.1736,69.6457,12.65,19,1,0.93,AF,1699699155
27,yuxi,24.355,102.5422,16.07,76,0,1.02,CN,1699699157
28,puerto natales,-51.7236,-72.4875,4.06,85,100,3.17,CL,1699699027
29,adamstown,-25.066,-130.1015,22.14,84,91,5.95,PN,1699699158
30,mejit,10.2753,170.8646,27.54,84,100,8.9,MH,1699699158
31,flying fish cove,-10.4217,105.6791,25.82,78,40,4.63,CX,1699699159
32,sakaiminato,35.55,133.2333,11.99,82,75,7.2,JP,1699699159
33,west island,-12.1568,96.8225,27.99,74,40,5.14,CC,1699699160
34,zaozersk,69.4005,32.4476,-6.0,83,21,2.76,RU,1699699161
35,dunedin,-45.8742,170.5036,11.55,94,5,2.78,NZ,1699698496
36,qaqortoq,60.7167,-46.0333,-5.0,65,35,4.1,GL,1699699162
37,macas,-2.3167,-78.1167,20.49,88,100,0.87,EC,1699699162
38,dudinka,69.4058,86.1778,-16.29,99,78,2.68,RU,1699699163
39,yellowknife,62.456,-114.3525,-2.71,100,40,1.54,CA,1699699164
40,jamestown,42.097,-79.2353,5.77,75,100,2.06,US,1699699165
41,rongelap,11.1635,166.8941,26.31,89,100,8.34,MH,1699699165
42,howrah,22.5892,88.3103,29.0,54,7,2.57,IN,1699699166
43,itamaraca,-7.7478,-34.8256,28.03,68,49,6.51,BR,1699699167
44,alaghsas,17.0187,8.0168,33.94,12,0,7.72,NE,1699699167
45,celestun,20.8667,-90.4,24.61,90,60,3.84,MX,1699699168
46,udachny,66.4167,112.4,-8.08,61,89,7.33,RU,1699699168
47,uturoa,-16.7333,-151.4333,26.37,85,17,3.53,PF,1699699169
48,albany,42.6001,-73.9662,5.45,74,46,0.45,US,1699699170
49,crane,31.3974,-102.3501,11.05,69,100,2.27,US,1699699171
50,pacocha,-17.5833,-71.3333,19.19,89,71,2.5,PE,1699699172
51,port mathurin,-19.6833,63.4167,25.53,77,18,3.41,MU,1699699173
52,strezhevoy,60.7333,77.5889,-0.02,98,100,2.68,RU,1699699173
53,dalandzadgad,43.5708,104.425,-4.73,30,0,4.88,MN,1699699174
54,bethel,41.3712,-73.414,6.12,79,13,0.45,US,1699699175
55,machhlishahr,25.6833,82.4167,28.17,38,60,1.32,IN,1699699176
56,ulladulla,-35.35,150.4667,18.52,87,76,11.04,AU,1699699176
57,daru,-9.0763,143.2092,25.03,79,67,4.86,PG,1699699177
58,saint-joseph,-21.3667,55.6167,27.21,86,93,3.28,RE,1699699177
59,kuqa,41.7278,82.9364,11.02,32,1,2.69,CN,1699699178
60,nuku'alofa,-21.1333,-175.2,22.19,83,75,7.2,TO,1699699179
61,amga,60.8953,131.9608,-20.02,99,100,0.99,RU,1699699179
62,port elizabeth,-33.918,25.5701,23.16,69,20,9.26,ZA,1699698914
63,pauini,-7.7136,-66.9764,25.87,73,40,0.76,BR,1699699180
64,dabeiba,7.0017,-76.2672,23.47,98,100,1.18,CO,1699699178
65,sorong,-0.8833,131.25,27.97,76,100,3.19,ID,1699698934
66,langsa,4.4683,97.9683,25.79,89,99,1.0,ID,1699699182
67,thompson,55.7435,-97.8558,-1.91,86,100,5.14,CA,1699699183
68,colonia,50.9333,6.95,9.97,81,100,5.66,DE,1699699183
69,grytviken,-54.2811,-36.5092,3.86,82,30,3.81,GS,1699699184
70,sariveliler,36.6913,32.6196,17.7,34,35,3.91,TR,1699699184
71,grand rapids,42.9634,-85.6681,3.42,92,75,0.0,US,1699699185
72,tura,25.5198,90.2201,21.54,82,21,1.05,IN,1699699186
73,palikir - national government center,6.9248,158.1611,26.47,94,75,2.57,FM,1699699186
74,arteche,12.2645,125.4048,27.12,83,86,1.98,PH,1699699187
75,rakitnoye,50.8389,35.8515,4.92,66,100,6.99,RU,1699699187
76,fort st. john,56.2499,-120.8529,-0.06,74,100,4.63,CA,1699699188
77,nova sintra,14.8667,-24.7167,22.23,69,31,2.57,CV,1699699189
78,taltal,-25.4,-70.4833,18.62,69,17,1.39,CL,1699699189
79,erenhot,43.6475,111.9767,-7.08,37,20,3.75,CN,1699699190
80,edinburgh of the seven seas,-37.0676,-12.3116,15.86,84,98,13.46,SH,1699699191
81,sol'tsy,58.1239,30.3238,6.19,85,100,2.41,RU,1699699191
82,unai,-16.3575,-46.9061,29.12,28,0,2.71,BR,1699699192
83,magadi,12.9667,77.2333,29.09,56,47,3.93,IN,1699699193
84,tangalle,6.024,80.7911,30.09,74,23,2.34,LK,1699699193
85,chanute,37.6792,-95.4572,5.82,65,100,2.57,US,1699699194
86,wynyard,-41.0,145.7167,10.83,64,0,4.73,AU,1699699120
87,invercargill,-46.4,168.35,13.9,61,85,2.24,NZ,1699699195
88,datong,40.0936,113.2914,-3.21,26,0,2.33,CN,1699699006
89,playa blanca,28.8643,-13.8281,24.25,78,14,6.91,ES,1699699197
90,lebu,-37.6167,-73.65,10.73,87,100,6.84,CL,1699699197
91,ixtapa,20.7,-105.2,22.91,93,85,1.59,MX,1699699198
92,dombarovskiy,50.7587,59.5386,3.33,96,100,4.92,RU,1699699198
93,essaouira,31.5125,-9.77,25.72,38,4,3.09,MA,1699699199
94,susuman,62.7833,148.1667,-30.44,99,89,0.37,RU,1699699199
95,egilsstadir,65.2653,-14.3948,-5.05,86,0,1.03,IS,1699699200
96,haiku-pauwela,20.9219,-156.3051,25.02,64,0,7.2,US,1699699201
97,mount pearl,47.5166,-52.7813,1.19,94,100,11.32,CA,1699699201
98,jaisalmer,26.9147,70.9181,29.27,19,0,4.49,IN,1699699202
99,umri,26.5106,78.9367,30.16,29,0,3.77,IN,1699699203
100,sikonge,-5.6333,32.7667,34.0,19,70,3.95,TZ,1699699205
101,ancud,-41.8697,-73.8203,7.96,74,94,8.06,CL,1699699206
102,vadso,70.0744,29.7487,-1.51,80,20,5.66,NO,1699699206
103,pandan,14.0453,124.1694,27.12,86,100,4.83,PH,1699699207
104,guatrache,-37.6678,-63.5302,14.98,87,21,2.56,AR,1699699208
105,mount gambier,-37.8333,140.7667,8.19,89,2,2.28,AU,1699699208
106,tazovsky,67.4667,78.7,-9.09,95,100,2.88,RU,1699699209
107,iqaluit,63.7506,-68.5145,-3.15,68,100,4.12,CA,1699699210
108,sitka,57.0531,-135.33,5.94,81,100,4.63,US,1699699210
109,vorgashor,67.5833,63.95,-13.88,92,16,1.84,RU,1699699211
110,linxia chengguanzhen,35.6003,103.2064,3.55,44,54,2.18,CN,1699699212
111,jinchang,38.4953,102.1739,-0.29,31,0,2.61,CN,1699699212
112,chiredzi,-21.05,31.6667,35.41,22,0,4.31,ZW,1699699213
113,wailua homesteads,22.0669,-159.378,23.44,91,100,5.66,US,1699699214
114,neftegorsk,52.802,51.166,2.99,68,24,6.37,RU,1699699215
115,acarau,-2.8856,-40.12,28.78,61,93,8.85,BR,1699699215
116,saipan,15.1355,145.701,28.39,78,75,6.17,MP,1699699200
117,hammerfest,70.6634,23.6821,-0.75,100,75,1.54,NO,1699699217
118,san rafael del yuma,18.4299,-68.6739,26.76,87,57,4.43,DO,1699699218
119,morehead city,34.7229,-76.726,13.32,83,100,5.66,US,1699699218
120,tiksi,71.6872,128.8694,-12.44,90,100,7.58,RU,1699699219
121,hermanus,-34.4187,19.2345,19.4,68,30,6.26,ZA,1699699220
122,severo-yeniseyskiy,60.3725,93.0408,-10.24,93,83,1.34,RU,1699699220
123,woolgoolga,-30.1106,153.2007,20.93,85,0,4.55,AU,1699699221
124,avarua,-21.2078,-159.775,23.03,94,100,1.54,CK,1699699221
125,juba,4.8517,31.5825,34.85,32,64,2.52,SS,1699699222
126,erdenet,49.0333,104.0833,-12.29,84,0,1.84,MN,1699699223
127,klaksvik,62.2266,-6.589,5.51,68,76,6.68,FO,1699699223
128,kavaratti,10.5669,72.642,28.96,69,86,1.67,IN,1699699224
129,tagta,41.6504,59.9164,13.97,38,0,8.23,TM,1699699224
130,nadi,-17.8,177.4167,26.0,69,40,5.66,FJ,1699699225
131,hadibu,12.65,54.0333,28.54,71,100,6.17,YE,1699699226
132,talnakh,69.4865,88.3972,-12.75,97,99,0.63,RU,1699699226
133,cody,44.5263,-109.0565,6.12,44,0,5.66,US,1699699227
134,chibougamau,49.9168,-74.3659,-5.21,93,100,2.06,CA,1699699228
135,page,36.9147,-111.4558,4.88,33,0,2.06,US,1699699228
136,cadale,2.7603,46.3222,27.14,78,86,7.63,SO,1699699229
137,hawaiian paradise park,19.5933,-154.9731,21.69,89,75,3.09,US,1699699230
138,talara,-4.5772,-81.2719,20.56,76,99,7.33,PE,1699699230
139,aasiaat,68.7098,-52.8699,-14.56,85,100,4.85,GL,1699699232
140,choibalsan,48.0667,114.5,-12.59,88,93,3.76,MN,1699699233
141,east london,-33.0153,27.9116,23.52,68,40,10.29,ZA,1699699234
142,ulsteinvik,62.3432,5.8487,4.62,78,20,0.45,NO,1699699235
143,okha,53.5739,142.9478,-5.66,83,100,6.14,RU,1699699235
144,selkirk,50.1436,-96.8845,-1.96,94,33,3.32,CA,1699699236
145,ghat,24.9647,10.1728,28.52,11,0,3.16,LY,1699699237
146,albina,5.5,-54.05,26.97,80,53,2.55,SR,1699699237
147,skelleftea,64.7507,20.9528,-3.89,100,75,2.06,SE,1699699238
148,nelson,-41.2833,173.2833,11.83,85,1,0.45,NZ,1699699204
149,geraldton,-28.7667,114.6,21.23,83,100,5.66,AU,1699699239
150,fort mcmurray,56.7268,-111.381,-5.23,93,0,4.63,CA,1699699240
151,calbuco,-41.768,-73.1273,7.56,86,100,5.6,CL,1699699240
152,stanley,54.868,-1.6985,8.21,82,0,3.6,GB,1699699119
153,amasra,41.7463,32.3863,23.03,48,99,1.12,TR,1699699241
154,kasumkent,41.6773,48.146,14.2,54,14,2.39,RU,1699699242
155,quezon,7.7303,125.0989,24.13,90,63,0.94,PH,1699699244
156,sebastopol,44.6,33.5333,17.78,55,97,3.13,UA,1699699053
157,betio village,1.358,172.9211,29.02,81,96,2.31,KI,1699699245
158,campo gallo,-26.5833,-62.85,29.65,56,1,0.12,AR,1699699245
159,nar'yan-mar,67.6713,53.087,-4.94,94,100,8.05,RU,1699699246
160,carnarvon,-24.8667,113.6333,21.46,70,0,7.87,AU,1699699148
161,tsiombe,-25.3,45.4833,26.95,42,1,6.85,MG,1699699247
162,hami,42.8,93.45,7.39,22,100,1.2,CN,1699699247
163,freetown,8.484,-13.2299,23.84,100,75,2.06,SL,1699699248
164,flin flon,54.7682,-101.865,-5.16,94,9,3.08,CA,1699699249
165,iskateley,67.6803,53.1512,-4.99,94,100,8.05,RU,1699699249
166,yuzhno-kurilsk,44.0306,145.8556,5.76,88,86,12.17,RU,1699699250
167,general ramirez,-32.176,-60.2008,19.29,98,98,3.96,AR,1699699252
168,longyearbyen,78.2186,15.6401,-8.09,73,75,3.6,SJ,1699699252
169,arkhangel'sk,64.5401,40.5433,0.63,98,98,2.07,RU,1699699253
170,hithadhoo,-0.6,73.0833,27.29,81,44,6.25,MV,1699699254
171,ambatofinandrahana,-20.55,46.8,27.08,27,0,1.36,MG,1699699255
172,piranshahr,36.701,45.1413,17.92,33,100,2.5,IR,1699699255
173,saint-pierre,-21.3393,55.4781,26.82,69,20,3.09,RE,1699699256
174,pucon,-39.2822,-71.9543,7.49,96,100,4.72,CL,1699699112
175,alice springs,-23.7,133.8833,31.75,25,44,3.6,AU,1699699011
176,argo,37.6333,22.7333,24.88,45,24,7.01,GR,1699699258
177,adelia maria,-33.6315,-64.021,15.36,89,7,0.89,AR,1699699259
178,badger,64.8,-147.5333,-8.07,92,100,0.0,US,1699699259
179,papatowai,-46.5619,169.4708,11.45,61,78,2.73,NZ,1699699260
180,hamilton,39.1834,-84.5333,2.83,83,0,2.57,US,1699699261
181,saynshand,44.8824,110.1163,-12.84,80,22,2.08,MN,1699699261
182,garhi khairo,28.0606,67.9803,30.82,18,0,1.28,PK,1699699262
183,betong,5.7743,101.0723,23.13,98,100,0.87,TH,1699699263
184,tuy hoa,13.0833,109.3,25.32,92,14,2.02,VN,1699699263
185,nichinan,31.6,131.3667,16.82,72,99,0.79,JP,1699699264
186,przasnysz,53.0191,20.8803,6.88,95,100,0.7,PL,1699699265
187,alo,7.4178,6.7371,29.77,68,94,1.67,NG,1699699266
188,nampula,-15.1165,39.2666,26.97,65,75,4.12,MZ,1699699266
189,st. john's,47.5649,-52.7093,1.66,94,100,11.32,CA,1699699269
190,laguna,38.421,-121.4238,12.19,82,0,1.54,US,1699699269
191,emmett,43.8735,-116.4993,7.94,63,98,2.06,US,1699699270
192,kudahuvadhoo,2.6708,72.8944,27.85,74,100,3.39,MV,1699699271
193,kloulklubed,7.0419,134.2556,28.28,76,98,4.64,PW,1699699271
194,umarga,17.8333,76.6167,30.62,32,52,4.17,IN,1699699245
195,fortuna,40.5982,-124.1573,9.08,96,100,0.0,US,1699699273
196,hasaki,35.7333,140.8333,13.22,61,100,7.1,JP,1699699133
197,cidreira,-30.1811,-50.2056,21.24,88,90,8.91,BR,1699699274
198,rio grande,-32.035,-52.0986,21.06,98,100,2.85,BR,1699699275
199,qusmuryn,52.4503,64.6311,8.96,65,100,5.27,KZ,1699699276
200,san antonio de pale,-1.4014,5.6325,26.03,82,100,5.75,GQ,1699699276
201,armacao de buzios,-22.7469,-41.8817,24.03,81,3,3.87,BR,1699699277
202,ndjole,-0.1783,10.7649,23.5,98,100,0.32,GA,1699699278
203,bogale,16.2833,95.4,28.07,81,91,1.73,MM,1699699279
204,hobyo,5.3505,48.5268,26.13,80,100,0.41,SO,1699699280
205,happy valley-goose bay,53.3168,-60.3315,-3.83,80,100,4.12,CA,1699699281
206,pumiao,22.75,108.4833,29.22,82,82,4.27,CN,1699699282
207,la passe,45.5549,-0.8967,12.23,74,62,4.17,FR,1699699283
208,inirida,3.8653,-67.9239,22.45,99,88,0.66,CO,1699699284
209,volksrust,-27.3654,29.8818,31.64,15,71,3.65,ZA,1699699284
210,ilulissat,69.2167,-51.1,-5.99,53,75,5.66,GL,1699699285
211,lenina,46.0667,39.7833,11.03,49,99,7.14,RU,1699699286
212,remontnoye,46.5614,43.6501,11.69,42,76,7.05,RU,1699699288
213,hohenwestedt,54.0833,9.6667,8.23,85,100,1.84,DE,1699699288
214,emerald,-23.5333,148.1667,25.75,46,79,8.14,AU,1699699289
215,caleta de carquin,-11.0925,-77.6267,18.38,89,41,2.44,PE,1699699290
216,ulysses,37.5814,-101.3552,5.72,65,40,5.14,US,1699699290
217,gadzhiyevo,69.2551,33.3362,-2.56,70,82,5.62,RU,1699699292
218,nemuro,43.3236,145.575,3.48,75,39,9.35,JP,1699699212
219,weno,7.4515,151.8468,27.97,89,75,3.6,FM,1699699293
220,slyudyanka,51.6594,103.7061,-6.11,87,4,1.76,RU,1699699293
221,le morne-rouge,14.7667,-61.1333,24.76,78,34,7.88,MQ,1699699294
222,sokoni,-6.4333,39.55,27.29,76,87,4.23,TZ,1699699294
223,kourou,5.1552,-52.6478,28.0,79,15,4.36,GF,1699699083
224,puerto lempira,15.2667,-83.7667,25.18,93,98,2.86,HN,1699699295
225,izki,22.9333,57.7667,29.82,16,18,1.54,OM,1699699296
226,port saint john's,-31.6229,29.5448,24.77,72,81,6.73,ZA,1699699297
227,la'ie,21.6477,-157.9253,25.98,85,27,4.02,US,1699699298
228,montaigu,46.9767,-1.3085,11.29,73,67,3.28,FR,1699699300
229,rute,37.3269,-4.3683,14.66,82,81,0.58,ES,1699699300
230,port lincoln,-34.7333,135.8667,13.29,70,99,7.46,AU,1699699302
231,kodiak,57.79,-152.4072,0.73,55,0,6.69,US,1699699302
232,ta`u,-14.2336,-169.5144,27.1,83,10,2.53,AS,1699699303
233,porto novo,6.4965,2.6036,30.9,61,85,4.05,BJ,1699699303
234,ankang,32.68,109.0172,5.88,81,100,1.35,CN,1699699304
235,andergrove,-21.0833,149.1833,23.69,73,68,5.26,AU,1699699304
236,manado,1.487,124.8455,26.43,89,40,0.51,ID,1699699050
237,marianna,30.7744,-85.2269,19.98,94,100,3.6,US,1699699305
238,northport,33.229,-87.5772,12.16,91,100,4.63,US,1699699306
239,whitehorse,60.7161,-135.0538,-0.57,93,100,0.0,CA,1699699306
240,lorengau,-2.0226,147.2712,27.12,83,99,3.08,PG,1699699307
241,aguada de pasajeros,22.385,-80.8508,23.77,94,16,3.72,CU,1699699307
242,byron bay,-28.65,153.6167,18.73,83,1,4.32,AU,1699699309
243,wakkanai,45.4094,141.6739,-0.51,96,100,5.81,JP,1699699310
244,funafuti,-8.5243,179.1942,29.0,94,40,2.57,TV,1699699311
245,puerto baquerizo moreno,-0.9,-89.6,23.83,83,97,5.89,EC,1699699311
246,yarmouth,41.7057,-70.2286,9.08,69,0,10.73,US,1699699312
247,kaspiyskiy,45.3929,47.3707,10.89,54,9,4.93,RU,1699699313
248,myitkyina,25.3833,97.4,22.11,64,1,0.21,MM,1699699314
249,kailua-kona,19.6406,-155.9956,24.17,91,100,3.09,US,1699699314
250,ramapuram,13.1167,79.2,27.9,56,40,4.78,IN,1699699315
251,nieuw amsterdam,5.8833,-55.0833,26.12,89,20,1.54,SR,1699699316
252,callao,-12.0667,-77.15,19.84,82,100,3.6,PE,1699699316
253,tsiroanomandidy,-18.7667,46.0333,34.13,25,6,1.01,MG,1699699317
254,keflavik,64.0049,-22.5624,4.24,93,75,5.14,IS,1699699093
255,tikhvin,59.6451,33.5294,5.68,89,100,2.07,RU,1699699318
256,xiaoshi,41.2971,124.1209,-9.85,98,61,0.37,CN,1699699319
257,haillicourt,50.4752,2.5746,10.96,89,7,3.58,FR,1699699319
258,vila do maio,15.1333,-23.2167,27.44,68,61,4.71,CV,1699699321
259,kill devil hills,36.0307,-75.676,13.88,78,100,6.17,US,1699699321
260,pyu,18.4833,96.4333,26.53,87,65,2.32,MM,1699699323
261,karratha,-20.7377,116.8463,26.34,56,1,8.6,AU,1699699324
262,howard springs,-12.497,131.047,29.95,75,66,2.12,AU,1699699324
263,suntar,62.1444,117.6319,-7.58,76,100,5.33,RU,1699699325
264,acatlan de juarez,20.4167,-103.5833,17.03,93,100,0.63,MX,1699699326
265,smithers,54.7804,-127.1743,4.18,81,100,3.6,CA,1699699327
266,arhribs,36.7936,4.3116,20.03,42,20,3.61,DZ,1699699327
267,georgetown,5.4112,100.3354,27.79,91,40,1.03,MY,1699699107
268,stephenville,32.2207,-98.2023,12.44,79,100,2.06,US,1699699328
269,kapuskasing,49.4169,-82.4331,-2.95,86,100,3.6,CA,1699699329
270,bereket,39.2446,55.5154,16.32,30,2,2.52,TM,1699699329
271,peace river,56.2501,-117.286,2.59,69,75,1.03,CA,1699699330
272,whangarei,-35.7317,174.3239,8.36,86,9,1.38,NZ,1699699331
273,inhambane,-23.865,35.3833,27.56,54,0,6.03,MZ,1699699332
274,walvis bay,-22.9575,14.5053,20.77,64,40,5.92,NA,1699699332
275,benguela,-12.5763,13.4055,28.29,64,99,3.55,AO,1699699333
276,novohrad-volynskyi,50.5941,27.6165,8.32,87,100,5.77,UA,1699699333
277,park forest village,40.8067,-77.9169,5.2,89,100,0.0,US,1699699334
278,bathsheba,13.2167,-59.5167,27.34,89,75,9.77,BB,1699699334
279,holualoa,19.6228,-155.9522,22.1,91,100,3.09,US,1699699335
280,kalispell,48.1958,-114.3129,3.21,82,100,2.06,US,1699699335
281,sarandi grande,-33.7333,-56.3333,19.54,96,100,2.77,UY,1699699336
282,yanykurgan,43.915,67.2481,12.43,47,100,5.2,KZ,1699699337
283,berriane,32.8265,3.7669,21.45,27,0,6.32,DZ,1699699337
284,dawson creek,55.7666,-120.2362,0.8,69,0,2.06,CA,1699699338
285,tual,-5.6667,132.75,28.24,78,84,4.48,ID,1699699338
286,touros,-5.1989,-35.4608,27.87,64,19,7.4,BR,1699699339
287,boguchany,58.3814,97.4531,-12.1,93,5,0.93,RU,1699699339
288,taikang,46.8333,124.4167,-4.57,49,72,2.24,CN,1699699340
289,freeport,40.6576,-73.5832,7.98,83,0,3.09,US,1699699341
290,iquitos,-3.7481,-73.2472,24.02,100,75,1.03,PE,1699699342
291,nkoteng,4.5167,12.0333,28.12,63,100,1.33,CM,1699699342
292,itoman,26.1247,127.6694,23.01,78,75,6.69,JP,1699699343
293,vershino-darasunskiy,52.35,115.5167,-14.87,86,1,1.7,RU,1699699344
294,beruniy,41.6911,60.7525,12.98,38,0,7.2,UZ,1699699344
295,verkhnevilyuysk,63.4453,120.3167,-7.62,79,100,5.17,RU,1699699345
296,tamandare,-8.7597,-35.1047,28.12,59,55,4.74,BR,1699699345
297,lavena ponte tresa,45.9591,8.8653,15.07,53,0,1.54,IT,1699699346
298,ust'-ilimsk,58.0006,102.6619,-10.31,87,16,1.34,RU,1699699346
299,selfoss,63.9331,-20.9971,1.69,97,100,3.41,IS,1699699347
300,port blair,11.6667,92.75,29.02,79,75,2.06,IN,1699699348
301,obsharovka,53.125,48.8531,6.1,66,18,4.25,RU,1699699348
302,robertsport,6.7533,-11.3686,26.44,83,100,1.3,LR,1699699349
303,kruisfontein,-34.0033,24.7314,22.35,55,31,9.81,ZA,1699699349
304,daura,11.5538,11.4085,36.13,13,97,4.59,NG,1699699350
305,centerville,39.6284,-84.1594,0.92,87,0,0.0,US,1699699351
306,itanhaem,-24.1831,-46.7889,24.89,81,49,0.87,BR,1699699351
307,klyuchi,52.2667,79.1667,5.85,72,94,2.94,RU,1699699352
308,mana,5.6592,-53.7767,27.23,82,51,4.44,GF,1699699353
309,luderitz,-26.6481,15.1594,24.44,53,0,11.76,NA,1699699354
310,vilyuchinsk,52.9306,158.4028,1.15,98,100,3.72,RU,1699699354
311,zeya,53.75,127.2667,-9.17,43,0,2.07,RU,1699699355
312,nadym,65.5333,72.5167,-2.45,93,100,4.35,RU,1699699356
313,cosala,24.4125,-106.6908,18.87,83,4,1.54,MX,1699699356
314,kendari,-3.945,122.4989,26.9,79,77,2.18,ID,1699698543
315,akrehamn,59.2667,5.1833,6.34,81,75,4.12,NO,1699699357
316,bowen,-20.0167,148.2333,24.28,71,29,7.88,AU,1699699358
317,san patricio,28.017,-97.5169,15.47,93,100,4.49,US,1699699358
318,shingu,33.7333,135.9833,11.71,73,100,2.67,JP,1699699330
319,altai,46.3722,96.2583,-12.32,77,41,1.11,MN,1699699360
320,nowe,53.6491,18.7272,6.73,75,100,1.32,PL,1699699361
321,queenstown,-31.8976,26.8753,36.83,10,64,13.0,ZA,1699699361
322,saint-philippe,-21.3585,55.7679,27.77,86,96,3.7,RE,1699698955
323,maralal,1.0968,36.698,19.85,62,92,4.32,KE,1699699362
324,cromer,52.9312,1.2989,8.37,87,2,4.47,GB,1699699363
325,cooma,-36.2333,149.1333,15.5,95,50,1.64,AU,1699699364
326,metlili chaamba,32.2667,3.6333,21.52,26,0,3.6,DZ,1699699364
327,kidal,18.4411,1.4078,35.02,7,1,4.75,ML,1699699365
328,aykhal,66.0,111.5,-13.13,85,100,3.62,RU,1699699164
329,karatsu,33.4425,129.9697,15.94,25,86,0.45,JP,1699699144
330,great falls,47.5002,-111.3008,4.67,53,0,8.23,US,1699699368
331,lillesand,58.2488,8.3778,4.38,81,20,2.57,NO,1699699368
332,punta arenas,-53.15,-70.9167,5.06,70,100,5.14,CL,1699699369
333,guane,22.2025,-84.0875,23.68,94,8,2.98,CU,1699699369
334,kon tum,14.35,108.0,22.99,87,29,1.76,VN,1699699370
335,urengoy,65.9667,78.3667,-4.68,95,100,2.71,RU,1699699370
336,nema,57.5067,50.5011,2.48,84,93,2.25,RU,1699699372
337,gilgit,35.9221,74.3087,12.27,34,0,0.77,PK,1699699372
338,tadmur,34.5608,38.2805,23.92,35,100,1.8,SY,1699699373
339,kayangel,8.0823,134.7173,29.34,76,99,5.76,PW,1699699374
340,obihiro,42.9172,143.2044,0.67,63,2,3.51,JP,1699699320
341,garbahaarrey,3.3289,42.2209,31.13,48,81,4.52,SO,1699699375
342,sandnessjoen,66.0217,12.6316,2.06,35,0,4.12,NO,1699699375
343,inari,68.906,27.0288,-8.89,96,59,1.42,FI,1699699376
344,fisterra,42.9049,-9.2629,17.64,95,100,12.07,ES,1699699377
345,gangapur,26.4833,76.7167,29.64,25,0,2.99,IN,1699699378
346,konarka,19.9,86.1167,32.22,57,8,3.15,IN,1699699379
347,bikenibeu village,1.3673,173.1241,28.98,84,75,1.03,KI,1699699379
348,kangding,30.0513,101.9603,8.43,97,100,2.65,CN,1699699380
349,ceeldheer,3.8488,47.1806,23.87,94,100,5.94,SO,1699699381
350,bozoum,6.3193,16.3799,30.03,52,88,2.18,CF,1699699381
351,kuna,43.4918,-116.4201,7.31,70,100,3.6,US,1699699382
352,manas,42.7275,47.6785,14.68,63,26,13.0,RU,1699699382
353,hillsboro,45.5229,-122.9898,11.81,78,20,5.14,US,1699699383
354,kununurra,-15.7667,128.7333,31.99,58,34,5.14,AU,1699699383
355,baijiantan,45.6333,85.1833,4.66,93,100,3.03,CN,1699699385
356,harstad,68.799,16.5293,0.09,96,31,3.58,NO,1699699385
357,calabozo,8.9242,-67.4293,24.59,84,97,2.94,VE,1699699387
358,abomsa,9.9833,39.9833,28.16,21,69,5.56,ET,1699699387
359,tamiahua,21.2667,-97.45,23.14,89,98,4.88,MX,1699699388
360,sinabang,2.4803,96.3801,26.66,80,100,0.97,ID,1699699388
361,lompoc,34.6391,-120.4579,12.14,97,0,3.6,US,1699699390
362,kingston,17.997,-76.7936,26.78,87,20,1.54,JM,1699699390
363,sao felix do xingu,-6.6447,-51.995,28.36,58,5,1.99,BR,1699699391
364,magadan,59.5667,150.8,-17.23,81,11,5.28,RU,1699699391
365,imbituba,-28.24,-48.6703,23.81,79,16,7.27,BR,1699699393
366,sao miguel do araguaia,-13.275,-50.1628,31.78,36,43,3.3,BR,1699699393
367,pakuranga,-36.8833,174.9167,14.81,69,75,4.12,NZ,1699699394
368,thames,-37.1333,175.5333,10.3,88,7,0.96,NZ,1699699395
369,isafjordur,66.0755,-23.124,-0.98,86,20,1.03,IS,1699699395
370,varto,39.1732,41.4559,12.84,56,100,2.0,TR,1699699396
371,lata,40.1629,-8.3327,18.37,83,99,4.27,PT,1699699396
372,sault ste. marie,46.5168,-84.3333,-3.69,93,0,1.03,CA,1699699397
373,utrik,11.2278,169.8474,26.45,90,100,6.87,MH,1699699398
374,mongo,12.1844,18.693,36.54,14,99,2.41,TD,1699699399
375,sulmona,42.0479,13.9291,16.9,50,53,3.21,IT,1699699399
376,masvingo,-20.0637,30.8277,32.8,17,0,3.24,ZW,1699699400
377,quellon,-43.1167,-73.6167,6.06,94,100,5.87,CL,1699699235
378,cururupu,-1.8283,-44.8683,29.21,59,32,4.57,BR,1699699401
379,namibe,-15.1961,12.1522,23.97,61,79,4.93,AO,1699699402
380,al ghayzah,16.2079,52.176,29.73,56,68,4.71,YE,1699699402
381,napier,-39.4833,176.9167,11.82,77,0,0.45,NZ,1699699203
382,khuzdar,27.7384,66.6434,24.24,8,0,2.94,PK,1699699403
383,malegaon,20.55,74.5333,32.84,28,46,2.89,IN,1699699404
384,kasempa,-13.4584,25.8338,33.45,24,39,4.31,ZM,1699699404
385,akureyri,65.6835,-18.0878,-8.04,93,0,1.54,IS,1699699366
386,waingapu,-9.6567,120.2641,28.57,73,12,1.64,ID,1699699405
387,mil'kovo,55.6078,37.7956,8.08,72,100,4.39,RU,1699699406
388,road town,18.4167,-64.6167,27.05,76,95,9.75,VG,1699699407
389,barclayville,4.6797,-8.2339,28.1,75,50,2.65,LR,1699699408
390,alofi,-19.0595,-169.9187,23.94,94,100,7.2,NU,1699699409
391,kulhudhuffushi,6.6221,73.07,28.44,74,86,3.52,MV,1699699410
392,kenora,49.8167,-94.4337,-2.46,93,100,3.09,CA,1699699410
393,belgrade,44.804,20.4651,12.81,90,75,3.09,RS,1699699411
394,port alfred,-33.5906,26.891,20.66,79,100,4.47,ZA,1699699411
395,manta,-0.95,-80.7333,23.88,78,75,3.6,EC,1699699412
396,lulea,65.5842,22.1547,-7.96,86,0,4.12,SE,1699699412
397,acapulco de juarez,16.8634,-99.8901,25.67,87,23,1.54,MX,1699699413
398,catemaco,18.4167,-95.1167,19.71,93,71,1.32,MX,1699699414
399,adilcevaz,38.8039,42.7342,12.06,56,99,1.27,TR,1699699414
400,hazro city,33.9091,72.4921,23.32,41,1,1.64,PK,1699699415
401,fale old settlement,-9.3852,-171.2468,28.92,72,57,4.3,TK,1699699415
402,kasama,-10.2129,31.1808,32.5,26,29,3.38,ZM,1699699360
403,yermakovskoye,53.2831,92.4003,-12.54,97,42,0.31,RU,1699699416
404,altsasu,42.9,-2.1652,14.89,96,100,1.7,ES,1699699417
405,stadtilm,50.7667,11.0833,7.21,87,100,6.72,DE,1699699417
406,gurupi,-11.7292,-49.0686,32.24,36,7,1.21,BR,1699699418
407,el calafate,-50.3408,-72.2768,4.64,77,100,3.78,AR,1699699419
408,nuuk,64.1835,-51.7216,-5.66,68,0,4.12,GL,1699699401
409,zhuanghe,39.7008,122.9911,-2.37,57,0,3.08,CN,1699699420
410,kisangani,0.5167,25.2,26.15,72,96,0.97,CD,1699699421
411,manuguru,17.981,80.7547,29.59,54,32,1.88,IN,1699699421
412,weatherford,32.7593,-97.7972,12.81,77,100,0.89,US,1699699422
413,lazaro cardenas,17.9583,-102.2,24.82,88,63,1.9,MX,1699699422
414,brookings,44.3114,-96.7984,0.66,86,0,5.14,US,1699699423
415,thakhek,17.4103,104.8307,32.06,73,93,1.88,LA,1699699423
416,piravam,9.8667,76.5,34.99,84,93,1.8,IN,1699699424
417,nagqu,31.5,92.0,-1.46,42,88,2.97,CN,1699699424
418,polyarnyy,69.1989,33.4478,-2.02,70,90,5.74,RU,1699699425
419,paracuru,-3.41,-39.0306,27.84,63,69,7.31,BR,1699699426
420,ati,13.2154,18.3353,36.65,12,57,3.79,TD,1699699426
421,pangody,65.85,74.4859,-2.96,94,100,3.46,RU,1699699427
422,hartford,41.7668,-72.7662,5.43,90,0,0.0,US,1699699428
423,storrington,50.9176,-0.4547,10.84,94,0,3.09,GB,1699699428
424,malindi,-3.2175,40.1191,31.09,66,75,6.69,KE,1699699429
425,tabou,4.423,-7.3528,27.24,79,52,3.47,CI,1699699430
426,benalla,-36.55,145.9833,20.48,70,84,3.08,AU,1699699430
427,dzhangala,49.2167,50.3333,8.94,52,3,6.57,KZ,1699699431
428,narrabri,-30.3167,149.7833,22.51,54,2,2.41,AU,1699699432
429,bamboo flat,11.7,92.7167,29.05,79,75,2.06,IN,1699699433
430,nikolayevka,53.1257,47.2041,6.65,75,32,3.26,RU,1699699433
431,cooper's town,26.8667,-77.5167,25.32,80,2,4.28,BS,1699699434
432,yangjiang,21.85,111.9667,23.79,87,51,4.73,CN,1699699434
433,taos,36.4072,-105.5731,0.22,88,100,1.54,US,1699699435
434,jayapura,-2.5333,140.7,28.66,91,83,3.24,ID,1699699357
435,hacienda huancane,-15.8222,-70.8856,3.4,78,100,0.42,PE,1699699436
436,mata-utu,-13.2816,-176.1745,28.19,80,100,2.55,WF,1699699437
437,carutapera,-1.195,-46.02,28.17,65,82,5.33,BR,1699699438
438,castillos,-34.1667,-53.8333,17.58,99,100,1.0,UY,1699699438
439,quang ngai,15.1167,108.8,25.39,90,15,1.22,VN,1699699439
440,turbat,26.0023,63.044,33.15,6,1,1.28,PK,1699699439
441,richards bay,-28.783,32.0377,33.72,43,55,7.4,ZA,1699699234
442,constantia,44.1833,28.65,19.38,62,38,7.32,RO,1699699385
443,yaren,-0.5472,166.916,28.18,84,100,13.77,NR,1699699442
444,dakhla,23.6848,-15.958,20.01,83,0,8.23,EH,1699699443
445,mareeba,-17.0,145.4333,22.4,90,6,1.85,AU,1699699443
446,horki,54.2861,30.9842,7.21,78,100,5.66,BY,1699699444
447,yeed,4.55,43.0333,27.36,65,100,5.61,SO,1699699444
448,steinbach,50.1667,8.5667,9.24,73,20,6.69,DE,1699699445
449,vorkuta,67.5,64.0,-14.11,92,17,1.34,RU,1699699446
450,zhumadian,32.9794,114.0294,2.63,100,100,2.79,CN,1699699446
451,atafu village,-8.5421,-172.5159,28.96,71,77,4.1,TK,1699699448
452,tofol,5.3248,163.0078,28.51,76,100,4.47,FM,1699699448
453,san jose del guaviare,2.5729,-72.6459,22.58,99,100,1.0,CO,1699699449
454,port hedland,-20.3167,118.5667,28.03,74,7,8.23,AU,1699699450
455,vallenar,-28.5708,-70.7581,19.22,47,0,0.47,CL,1699699451
456,borogontsy,62.6683,131.1683,-23.51,98,99,1.14,RU,1699699452
457,navalmoral de la mata,39.8916,-5.5406,17.75,88,100,5.86,ES,1699699437
458,amvrosiyivka,47.7935,38.4777,10.65,50,100,6.89,UA,1699699454
459,vallo della lucania,40.2297,15.2658,17.46,63,100,6.46,IT,1699699454
460,umea,63.8284,20.2597,-1.04,86,75,5.14,SE,1699699455
461,island harbour,50.724,-1.2758,11.07,86,40,0.89,GB,1699699456
462,rosetta,31.4044,30.4164,25.16,60,3,5.45,EG,1699699456
463,novaya mayna,54.15,49.75,4.06,64,15,3.66,RU,1699699457
464,codo,-4.4553,-43.8856,28.75,56,5,3.04,BR,1699699457
465,malanje,-9.5402,16.341,26.78,58,95,2.18,AO,1699699458
466,harnoli,32.2792,71.5539,26.01,32,0,2.48,PK,1699699458
467,tabas,33.5959,56.9244,27.12,19,79,1.03,IR,1699699459
468,washington,47.5001,-120.5015,4.65,84,100,0.75,US,1699699447
469,luganville,-15.5333,167.1667,25.31,86,100,6.44,VU,1699699460
470,polewali,-3.4324,119.3435,27.31,75,76,0.44,ID,1699699461
471,prado,-17.3411,-39.2208,27.29,70,46,3.44,BR,1699699461
472,ust'-kulom,61.6864,53.6902,-0.34,88,29,1.38,RU,1699699462
473,maxixe,-23.8597,35.3472,28.15,51,0,5.97,MZ,1699699462
474,ketchikan,55.3422,-131.6461,6.26,87,100,1.54,US,1699699463
475,chabahar,25.2919,60.643,29.21,36,14,3.61,IR,1699699463
476,ladario,-19.0047,-57.6017,33.52,34,84,2.78,BR,1699699465
477,prabumulih,-3.45,104.25,29.62,60,76,0.85,ID,1699699465
478,georgievka,49.3314,81.5761,2.98,80,63,5.81,KZ,1699699466
479,saskatoon,52.1168,-106.6345,-2.01,86,0,5.66,CA,1699699467
480,hotan,37.0997,79.9269,12.87,23,1,4.08,CN,1699699468
481,zaragoza,41.6561,-0.8773,13.25,75,100,2.57,ES,1699699468
482,springbok,-29.6643,17.8865,26.89,14,4,7.11,ZA,1699699470
483,choele choel,-39.2667,-65.6833,16.42,38,21,3.99,AR,1699699470
484,bubaque,11.2833,-15.8333,27.67,64,98,2.29,GW,1699699471
485,miasskoye,55.2784,61.8905,5.49,96,100,2.98,RU,1699699472
486,guerrero negro,27.9769,-114.0611,15.91,54,0,0.43,MX,1699699472
487,el espinal,16.3333,-94.0667,21.39,80,12,3.68,MX,1699699473
488,saudarkrokur,65.7461,-19.6394,-1.76,81,51,2.45,IS,1699699475
489,port douglas,-16.4833,145.4667,24.03,76,17,5.45,AU,1699699281
490,kenai,60.5544,-151.2583,-1.62,98,100,0.0,US,1699699476
491,coahuayana de hidalgo,18.7,-103.6583,24.39,86,99,1.84,MX,1699699476
492,beauceville,46.2179,-70.7787,-2.19,69,88,1.54,CA,1699699477
493,moissala,8.3404,17.7663,31.8,48,93,0.98,TD,1699699478
494,tinyahuarco,-10.75,-76.3,4.16,89,84,1.28,PE,1699699479
495,sitangkai,4.6628,119.3928,29.05,68,38,1.48,PH,1699699480
496,savonlinna,61.8699,28.88,3.03,93,100,3.09,FI,1699699481
497,twon-brass,4.3151,6.2418,28.03,76,97,3.91,NG,1699699481
498,kavieng,-2.5744,150.7967,28.02,79,100,3.98,PG,1699699482
499,kone,-21.0595,164.8658,20.17,83,47,2.07,NC,1699699483
500,khandyga,62.6667,135.6,-31.37,100,98,1.25,RU,1699699483
501,kuta,-8.7233,115.1723,29.97,74,40,3.58,ID,1699699484
502,ust'-barguzin,53.45,108.9833,-7.59,84,87,0.63,RU,1699699485
503,masuguru,-11.3667,38.4167,36.73,30,82,4.31,TZ,1699699485
504,sudley,38.7929,-77.4975,5.58,96,20,0.0,US,1699699486
505,port macquarie,-31.4333,152.9167,19.94,80,0,7.38,AU,1699698708
506,kapoeta,4.7717,33.5903,34.51,28,84,9.55,SS,1699699487
507,yanam,16.7333,82.2167,27.88,58,74,2.62,IN,1699699488
508,durango,24.8333,-104.8333,11.32,83,34,0.47,MX,1699699489
509,muisne,0.6,-80.0333,24.39,84,100,3.64,EC,1699699489
510,rome,34.257,-85.1647,11.93,92,100,2.57,US,1699699490
511,al hazm,16.1641,44.7769,26.85,24,46,3.69,YE,1699699490
512,padang,-0.9492,100.3543,28.03,90,100,1.04,ID,1699699169
513,kot diji,27.3427,68.7083,28.01,19,0,0.93,PK,1699699447
514,niles,42.0189,-87.8028,1.62,80,20,2.06,US,1699699492
515,ad darb,17.7229,42.2526,32.56,51,3,6.22,SA,1699699493
516,camapua,-19.5314,-54.0439,34.29,19,90,5.03,BR,1699699493
517,pisco,-13.7,-76.2167,18.03,88,100,1.03,PE,1699699494
518,lucea,18.451,-78.1736,26.92,82,31,5.47,JM,1699699495
519,lianzhou,24.7811,112.3825,14.55,91,100,2.54,CN,1699699495
520,reyes,-14.3167,-67.3833,26.39,66,46,0.97,BO,1699699496
521,salahonda,2.1019,-78.7217,25.41,85,100,5.35,CO,1699699496
522,banjar,-8.19,114.9675,26.62,87,19,1.44,ID,1699699497
523,piti village,13.4626,144.6933,28.49,89,40,5.14,GU,1699699497
524,skive,56.5667,9.0333,7.29,93,100,2.24,DK,1699699215
525,sarkand,45.41,79.9186,8.36,50,5,1.34,KZ,1699699498
526,vuktyl,63.8567,57.3094,-3.83,98,100,1.34,RU,1699699499
527,yanbu,24.0891,38.0637,37.02,23,0,1.03,SA,1699699500
528,kapa'a,22.0752,-159.319,24.18,90,100,5.66,US,1699699500
529,chul'man,56.8479,124.9104,-13.24,95,100,2.69,RU,1699699501
530,napasar,27.9667,73.55,27.84,26,0,3.85,IN,1699699501
531,isiro,2.7739,27.616,25.78,83,87,1.13,CD,1699699502
532,choyr,46.3611,108.3611,-14.84,85,6,3.05,MN,1699699503
533,bintulu,3.1667,113.0333,28.23,83,20,1.54,MY,1699699500
534,ciudad lazaro cardenas,17.9583,-102.2,24.82,88,63,1.9,MX,1699699480
535,zhezqazghan,47.7833,67.7667,6.32,87,75,6.0,KZ,1699699505
536,igarka,67.4667,86.5833,-5.27,96,100,3.99,RU,1699699506
537,suva,-18.1416,178.4415,24.71,78,75,4.63,FJ,1699699507
538,solleftea,63.1667,17.2667,-0.08,95,100,5.18,SE,1699699507
539,illizi,26.4833,8.4667,24.89,13,0,2.78,DZ,1699699508
540,visby,57.6409,18.296,7.24,93,75,1.03,SE,1699699508
541,souillac,-20.5167,57.5167,24.21,94,75,1.03,MU,1699699509
542,ola,59.5833,151.2833,-16.96,81,22,6.19,RU,1699699509
543,ak'ordat,15.5486,37.8867,33.03,28,4,0.62,ER,1699699510
544,mawlaik,23.6333,94.4167,24.99,69,0,0.39,MM,1699699511
545,basco,20.4487,121.9702,27.58,71,35,8.2,PH,1699699511
546,coquimbo,-29.9533,-71.3436,14.85,94,0,4.12,CL,1699699512
547,san bernardo del viento,9.3533,-75.9524,26.2,89,100,4.27,CO,1699699513
548,nova vicosa,-17.8919,-39.3719,27.29,70,17,3.56,BR,1699699514
549,antofagasta,-23.65,-70.4,17.6,71,44,1.74,CL,1699699474
550,cumana,10.4635,-64.1775,26.16,74,93,2.38,VE,1699699515
551,san felipe,10.3399,-68.7425,23.03,97,99,0.79,VE,1699699515
552,balykshi,47.0667,51.8667,10.0,53,0,7.0,KZ,1699699516
553,mogocha,53.7333,119.7667,-10.69,65,36,1.69,RU,1699699516
554,yara,20.2753,-76.9533,22.97,95,3,2.45,CU,1699699518
555,novodvinsk,64.4165,40.8122,0.44,98,100,2.05,RU,1699699518
556,portland,45.5234,-122.6762,12.38,75,100,6.17,US,1699699380
557,sylvania,41.7189,-83.713,4.39,77,0,3.09,US,1699699519
558,minas de marcona,-15.2119,-75.1103,14.4,91,68,3.53,PE,1699699520
559,huron,41.1501,-82.5499,6.49,83,6,2.61,US,1699699520
560,manicore,-5.8092,-61.3003,28.46,62,89,1.07,BR,1699699521
561,rumonge,-3.9736,29.4386,26.78,71,88,2.36,BI,1699699522
562,mpwapwa,-6.35,36.4833,29.85,33,96,4.21,TZ,1699699522
563,newman,37.3138,-121.0208,7.81,44,9,1.45,US,1699699523
564,kismayo,-0.3582,42.5454,29.36,66,92,4.19,SO,1699699523
565,olyokminsk,60.3736,120.4264,-7.49,77,99,4.52,RU,1699699524
566,siwa oasis,29.2041,25.5195,26.64,41,0,1.9,EG,1699699525
567,arkalyk,50.2486,66.9114,9.08,57,85,6.21,KZ,1699699526
568,darwin,-12.4611,130.8418,29.99,71,40,2.57,AU,1699699314
569,masterton,-40.9597,175.6575,9.38,94,0,1.41,NZ,1699699527
570,garissa,-0.4536,39.6401,31.24,53,94,1.79,KE,1699699528
571,barah,13.7,30.3667,36.01,21,72,2.19,SD,1699699299
572,calama,-22.4667,-68.9333,8.27,81,0,6.17,CL,1699699529
573,mugia,43.1041,-9.2179,17.73,96,100,11.98,ES,1699699530
574,turpan,42.9333,89.1667,10.82,49,100,1.0,CN,1699699532
575,sungai penuh,-2.0833,101.3833,19.84,98,93,0.68,ID,1699699532
576,katsuura,35.1333,140.3,13.61,75,100,6.2,JP,1699699381
577,mossel bay,-34.1831,22.146,20.96,66,29,7.85,ZA,1699699533
578,puerto santa,-8.9906,-78.6456,17.93,92,84,2.9,PE,1699699534
579,broken hill,-31.95,141.4333,28.71,21,29,7.92,AU,1699699534
580,bridgewater,44.3835,-64.5155,4.82,89,10,3.6,CA,1699699535
581,anar darah,32.7587,61.654,23.95,17,21,4.44,AF,1699699535
582,fukuecho,32.6881,128.8419,14.2,72,75,3.6,JP,1699699384
583,dadukou,26.5479,101.7054,18.25,62,1,0.36,CN,1699699536
584,irymple,-34.25,142.1667,22.83,34,18,0.45,AU,1699699537
585,mogadishu,2.0371,45.3438,27.93,83,75,5.66,SO,1699699538
586,heunghae,36.1125,129.3522,6.77,42,59,3.82,KR,1699699538
587,hengyang,26.8881,112.615,7.69,88,100,4.62,CN,1699699422
588,griffith,41.5284,-87.4237,3.92,90,0,0.0,US,1699699539
589,port maria,18.3685,-76.8895,27.23,88,28,4.24,JM,1699699540
590,kirakira,-10.4544,161.9205,26.39,88,100,4.18,SB,1699699540
591,bandon,51.7469,-8.7425,6.77,86,100,4.03,IE,1699699541
592,alenquer,-1.9417,-54.7383,27.64,67,18,3.39,BR,1699699541
593,codrington,-38.2667,141.9667,9.58,82,0,2.96,AU,1699699542
594,viqueque,-8.8673,126.3658,25.77,76,23,1.62,TL,1699699543
595,tazacorte,28.629,-17.9293,23.97,82,75,4.12,ES,1699699544
596,macon,39.8667,-88.9668,-1.6,93,0,0.0,US,1699699544
